,location,coordinates,country,lat,long
0,Harelbeke,"(3.3093368973972774, 50.844609649999995)",België / Belgique / Belgien,3.3093368973972774,50.844609649999995
1,Col d'Izoard,"(6.7350408, 44.8200267)",France,6.7350408,44.8200267
2,Lavaur,"(1.0230515, 44.6129697)",France,1.0230515,44.6129697
3,Antwerp,"(4.3997081, 51.2211097)",België / Belgique / Belgien,4.3997081,51.2211097
4,Levallois-Perret,"(2.2881683, 48.892956)",France,2.2881683,48.892956
5,Orléans,"(1.9086066, 47.9027336)",France,1.9086066,47.9027336
6,Fontaine-au-Pire,"(3.3747544, 50.1285441)",France,3.3747544,50.1285441
7,Chablis,"(3.8001657, 47.8152073)",France,3.8001657,47.8152073
8,Stuttgart,"(9.1800132, 48.7784485)",Deutschland,9.1800132,48.7784485
9,Saint-Orens-de-Gameville,"(1.5339526, 43.5519847)",France,1.5339526,43.5519847
10,Jonzac,"(-0.4320984, 45.4454469)",France,-0.4320984,45.4454469
11,Leiden,"(4.4811088666204295, 52.1518157)",Nederland,4.4811088666204295,52.1518157
12,Les Échelles,"(5.7545566, 45.4358859)",France,5.7545566,45.4358859
13,Le Revard,"(5.9772358, 45.6803934)",France,5.9772358,45.6803934
14,La Toussuire,"(6.2626689, 45.2557745)",France,6.2626689,45.2557745
15,Manosque,"(5.7826657, 43.8338026)",France,5.7826657,43.8338026
16,Leuven,"(4.7011675, 50.879202)",België / Belgique / Belgien,4.7011675,50.879202
17,Cambo-les-Bains,"(-1.3994687, 43.3609139)",France,-1.3994687,43.3609139
18,Andorra la Vella,"(1.5212467, 42.5069391)",Andorra,1.5212467,42.5069391
19,Saint-Valery-en-Caux,"(0.7106831, 49.8597004)",France,0.7106831,49.8597004
20,Jaca,"(-0.549372, 42.5692515)",España,-0.549372,42.5692515
21,Saint-Maixent-l'École,"(-0.2019344, 46.4096855)",France,-0.2019344,46.4096855
22,La Grande-Motte,,France,,
23,Enniscorthy,,Éire / Ireland,,
24,Belfort/Ballon d’Alsace,,France,,
25,Sestrières,,Italia,,
26,Melun,,France,,
27,Gérardmer,,France,,
28,Libourne,,France,,
29,Domaine du Rouret,,,,
30,Cérilly,,France,,
31,Deauville,"(0.0752778, 49.36)",France,0.0752778,49.36
32,Brive-la-Gaillarde,"(1.5332389, 45.1584982)",France,1.5332389,45.1584982
33,Calvi,"(8.759269083333335, 42.5497676)",France,8.759269083333335,42.5497676
34,Mouscron,"(3.2139093, 50.7433351)",België / Belgique / Belgien,3.2139093,50.7433351
35,Le Touquet-Paris-Plage,"(1.5909325, 50.5211202)",France,1.5909325,50.5211202
36,Joinville,"(5.1377537, 48.4433253)",France,5.1377537,48.4433253
37,Péronne,"(2.9321899, 49.9289578)",France,2.9321899,49.9289578
38,Neufchâtel-en-Bray,"(1.4421413, 49.7350035)",France,1.4421413,49.7350035
39,Saint-Martin-de-Landelles,"(-1.1803052176013185, 48.5527665)",France,-1.1803052176013185,48.5527665
40,Pforzheim,"(8.7029532, 48.8908846)",Deutschland,8.7029532,48.8908846
41,La Toussuire - Les Sybelles,"(6.254302998917014, 45.2637202)",France,6.254302998917014,45.2637202
42,Lannemezan,"(0.384241, 43.1252298)",France,0.384241,43.1252298
43,Lamballe,"(-2.516502292079859, 48.46244615)",France,-2.516502292079859,48.46244615
44,Tarbes,"(0.0781021, 43.232858)",France,0.0781021,43.232858
45,Tours,"(0.6889268, 47.3900474)",France,0.6889268,47.3900474
46,Muret,"(1.3262332, 43.4599858)",France,1.3262332,43.4599858
47,Orthez,"(-0.7738363, 43.4874963)",France,-0.7738363,43.4874963
48,Nanterre,"(2.2071267, 48.8924273)",France,2.2071267,48.8924273
49,Fontainebleau,"(2.7015872, 48.4049375)",France,2.7015872,48.4049375
50,Issoudun,"(1.9889131, 46.9477826)",France,1.9889131,46.9477826
51,Arlon,"(5.8167711, 49.6834601)",België / Belgique / Belgien,5.8167711,49.6834601
52,Sarran,"(1.9382743, 45.4097306)",France,1.9382743,45.4097306
53,Noisy-le-Sec,"(2.4516055, 48.8897751)",France,2.4516055,48.8897751
54,Châteaubriant,"(-1.3757282, 47.7194057)",France,-1.3757282,47.7194057
55,Koblenz,"(7.5943951, 50.3533278)",Deutschland,7.5943951,50.3533278
56,Nevers,"(3.1577203, 46.9876601)",France,3.1577203,46.9876601
57,Arcachon,"(-1.1700018, 44.6616428)",France,-1.1700018,44.6616428
58,Saint-Gildas-des-Bois,"(-2.0369967, 47.5174681)",France,-2.0369967,47.5174681
59,Plouay,"(-3.3470319507258073, 47.9181255)",France,-3.3470319507258073,47.9181255
60,Saint Germain en Laye,"(2.0917742569617808, 48.93560465)",France,2.0917742569617808,48.93560465
61,Forest,"(4.3181187, 50.811795)",België / Belgique / Belgien,4.3181187,50.811795
62,Prapoutel,"(5.9954353, 45.2567786)",France,5.9954353,45.2567786
63,Serre Chevalier,"(6.5500282, 44.9107381)",France,6.5500282,44.9107381
64,Gueugnon,"(4.0633825, 46.6005232)",France,4.0633825,46.6005232
65,Luxembourg City,"(6.129799, 49.6112768)",Lëtzebuerg,6.129799,49.6112768
66,Mourenx,"(-0.6294321, 43.3708943)",France,-0.6294321,43.3708943
67,Circuit de Rouen-Les-Essarts,"(1.0140565, 49.3383769)",France,1.0140565,49.3383769
68,Escaldes-Engordany,"(1.6070001140292214, 42.48691275)",Andorra,1.6070001140292214,42.48691275
69,Lodève,"(3.31892, 43.73106)",France,3.31892,43.73106
70,Revel,"(24.7453688, 59.4372155)",Eesti,24.7453688,59.4372155
71,Vatan,"(1.809034, 47.0714569)",France,1.809034,47.0714569
72,St-Étienne,"(4.3873058, 45.4401467)",France,4.3873058,45.4401467
73,Bergerac,"(0.487531, 44.8534568)",France,0.487531,44.8534568
74,Guzet-Neige,"(1.3020896, 42.7791077)",France,1.3020896,42.7791077
75,Tournus,"(4.9122425, 46.5617373)",France,4.9122425,46.5617373
76,Salon-de-Provence,"(5.071901379926933, 43.642167549999996)",France,5.071901379926933,43.642167549999996
77,Harrogate,"(-1.5391039, 53.9921491)",United Kingdom,-1.5391039,53.9921491
78,Rochefort,"(-0.9687519, 45.9438412)",France,-0.9687519,45.9438412
79,Forges-les-Eaux,"(1.5351516211598595, 49.61296845)",France,1.5351516211598595,49.61296845
80,Tonnerre,"(3.9733033, 47.8564662)",France,3.9733033,47.8564662
81,Super-Besse Sancy,"(2.8646104, 45.5028467)",France,2.8646104,45.5028467
82,Saarlouis,"(6.749846, 49.3164661)",Deutschland,6.749846,49.3164661
83,Nogent-sur-Marne,"(2.4917292, 48.8388009)",France,2.4917292,48.8388009
84,Castres,"(3.2383333, 49.8044444)",France,3.2383333,49.8044444
85,La Châtre,"(1.9892292, 46.5815678)",France,1.9892292,46.5815678
86,La Ferté-sous-Jouarre,"(3.1294221, 48.9500674)",France,3.1294221,48.9500674
87,Beauvais,"(2.0823355, 49.4300997)",France,2.0823355,49.4300997
88,Ciney,"(5.1008664, 50.2964911)",België / Belgique / Belgien,5.1008664,50.2964911
89,Thionville,"(6.1675872, 49.3579272)",France,6.1675872,49.3579272
90,Auxerre,"(3.570579, 47.7961287)",France,3.570579,47.7961287
91,Gourette–Col d'Aubisque,,,,
92,Ancenis,"(-1.1816088, 47.3648141)",France,-1.1816088,47.3648141
93,Le Pleynet,"(6.0555898, 45.2723252)",France,6.0555898,45.2723252
94,Nîmes,"(4.3600687, 43.8374249)",France,4.3600687,43.8374249
95,Montgenèvre,"(6.7184146, 44.9300126)",France,6.7184146,44.9300126
96,Lac Saint-Point,"(6.311630596095829, 46.815185)",France,6.311630596095829,46.815185
97,Lac de Payolle,"(0.2971510483022909, 42.9350241)",France,0.2971510483022909,42.9350241
98,St Gaudens,"(0.7247218, 43.1077682)",France,0.7247218,43.1077682
99,Colmar,"(7.3579641, 48.0777517)",France,7.3579641,48.0777517
100,Morcenx,"(-0.9113736, 44.0323042)",France,-0.9113736,44.0323042
101,Reims,"(4.031926, 49.2577886)",France,4.031926,49.2577886
102,Carnon-Plage,"(3.9884082090075825, 43.5469335)",France,3.9884082090075825,43.5469335
103,Le Puy du Fou,"(-0.9320287, 46.8938688)",France,-0.9320287,46.8938688
104,St. Gaudens,"(0.7247218, 43.1077682)",France,0.7247218,43.1077682
105,Lille Metropole,"(3.0760812, 50.641835)",France,3.0760812,50.641835
106,Strasbourg,"(7.7507127, 48.584614)",France,7.7507127,48.584614
107,Cap Découverte,"(2.14217259234798, 44.01785495)",France,2.14217259234798,44.01785495
108,Mûr-de-Bretagne,"(-2.9826182529094267, 48.1960984)",France,-2.9826182529094267,48.1960984
109,Fougères,"(-1.1958526, 48.3503362)",France,-1.1958526,48.3503362
110,Sestriere,"(6.8786855, 44.9584528)",Italia,6.8786855,44.9584528
111,Aosta,"(7.3196649, 45.7370885)",Italia,7.3196649,45.7370885
112,Aix-en-Provence,"(5.4474738, 43.5298424)",France,5.4474738,43.5298424
113,Epinal,"(6.4503643, 48.1747684)",France,6.4503643,48.1747684
114,Santenay,"(4.6996302, 46.9115071)",France,4.6996302,46.9115071
115,Loudun,"(0.081826, 47.0102263)",France,0.081826,47.0102263
116,Malo-les-Bains,"(2.3984694, 51.0466792)",France,2.3984694,51.0466792
117,Pla d'Adet,"(0.2947084, 42.8125539)",France,0.2947084,42.8125539
118,Saarbrücken,"(6.997495426501035, 49.247108100000005)",Deutschland,6.997495426501035,49.247108100000005
119,Fribourg,"(7.1027113, 46.6789116)",Schweiz/Suisse/Svizzera/Svizra,7.1027113,46.6789116
120,Île d'Oléron,"(-1.2919938102023352, 45.9254859)",France,-1.2919938102023352,45.9254859
121,Valréas,"(4.9906089, 44.3851455)",France,4.9906089,44.3851455
122,Isola,"(7.0519874, 44.1860506)",France,7.0519874,44.1860506
123,Les Sables d'Olonne,"(-1.7924575344192666, 46.5002031)",France,-1.7924575344192666,46.5002031
124,Barcelona,"(2.1774322, 41.3828939)",España,2.1774322,41.3828939
125,Cambrai,"(3.2356613, 50.1759602)",France,3.2356613,50.1759602
126,Vals-les-Bains,"(4.365739, 44.6553304)",France,4.365739,44.6553304
127,Chalet Reynard,"(5.3189938, 44.1523405)",France,5.3189938,44.1523405
128,Hasselt,"(5.3378043, 50.9303735)",België / Belgique / Belgien,5.3378043,50.9303735
129,Briançon,"(6.6436313, 44.8984037)",France,6.6436313,44.8984037
130,Saint-Gaudens,"(0.7247218, 43.1077682)",France,0.7247218,43.1077682
131,Avignon,"(4.8059012, 43.9492493)",France,4.8059012,43.9492493
132,Hautacam,"(-0.9912775, 46.8466377)",France,-0.9912775,46.8466377
133,Mondorf-les-Bains,"(6.2814238, 49.5071747)",Lëtzebuerg,6.2814238,49.5071747
134,Lugny,"(3.8087528, 49.7816658)",France,3.8087528,49.7816658
135,La Haie-Fouassière,"(-1.4000716, 47.1546806)",France,-1.4000716,47.1546806
136,Saintes,"(-0.6300671, 45.7460663)",France,-0.6300671,45.7460663
137,Wasquehal,"(3.1312447, 50.6691577)",France,3.1312447,50.6691577
138,Nantes,"(-1.5541362, 47.2186371)",France,-1.5541362,47.2186371
139,La Seu d'Urgell,"(1.4560067, 42.3575723)",España,1.4560067,42.3575723
140,Nuits-Saint-Georges,"(4.9540989, 47.134979)",France,4.9540989,47.134979
141,Pau,"(-0.3685668, 43.2957547)",France,-0.3685668,43.2957547
142,Bédoin,"(5.1806559, 44.1240383)",France,5.1806559,44.1240383
143,Villefranche-sur-Saône,"(4.726611, 45.9864749)",France,4.726611,45.9864749
144,Porto-Vecchio,"(9.2794469, 41.5911382)",France,9.2794469,41.5911382
145,La Bourboule,"(2.7401614, 45.5892481)",France,2.7401614,45.5892481
146,Saint-Flour,"(3.5026164, 45.7084425)",France,3.5026164,45.7084425
147,Lacanau,"(-1.0784851, 44.9776088)",France,-1.0784851,44.9776088
148,Château-Thierry,"(3.4027111, 49.0457362)",France,3.4027111,49.0457362
149,Montbéliard,"(6.7977564, 47.5102368)",France,6.7977564,47.5102368
150,Autrans,"(5.560912074563527, 45.19969585)",France,5.560912074563527,45.19969585
151,Angers,"(-0.5515588, 47.4739884)",France,-0.5515588,47.4739884
152,Merlin-Plage,"(1.5738494, 50.6766469)",France,1.5738494,50.6766469
153,Chantonnay,"(-1.0505509, 46.6868121)",France,-1.0505509,46.6868121
154,Sauternes,"(-0.341386, 44.5327805)",France,-0.341386,44.5327805
155,Bazas,"(-0.2126009, 44.4320456)",France,-0.2126009,44.4320456
156,Futuroscope,"(0.36674282520720536, 46.667614)",France,0.36674282520720536,46.667614
157,San Sebastián,"(-1.9838889, 43.3224219)",España,-1.9838889,43.3224219
158,Redon,"(-2.0842143, 47.6510682)",France,-2.0842143,47.6510682
159,Col du Galibier-Serre Chevalier,,,,
160,Freiburg,"(7.8494005, 47.9960901)",Deutschland,7.8494005,47.9960901
161,La Mure,"(5.7871983, 44.9038429)",France,5.7871983,44.9038429
162,Antony/Parc de Sceaux,"(2.298092497395581, 48.7693698)",France,2.298092497395581,48.7693698
163,Caen,"(-0.3635615, 49.1813403)",France,-0.3635615,49.1813403
164,Agen,"(0.6176112, 44.2015827)",France,0.6176112,44.2015827
165,Valentigney,"(6.8308784, 47.4622925)",France,6.8308784,47.4622925
166,Marche-en-Famenne,"(5.3407365, 50.2265147)",België / Belgique / Belgien,5.3407365,50.2265147
167,Lunéville,"(6.4919563, 48.5916164)",France,6.4919563,48.5916164
168,Epernay,"(3.9528655, 49.042561)",France,3.9528655,49.042561
169,Nancy,"(6.1834097, 48.6937223)",France,6.1834097,48.6937223
170,Cannes,"(7.0134418, 43.5515198)",France,7.0134418,43.5515198
171,Isola 2000,"(7.145441205329339, 44.1869246)",France,7.145441205329339,44.1869246
172,Meaux,"(2.8773541, 48.9582708)",France,2.8773541,48.9582708
173,La Pierre Saint-Martin,"(-0.7443902, 42.9773624)",France,-0.7443902,42.9773624
174,Mont-Ventoux,"(5.2783976, 44.1739649)",France,5.2783976,44.1739649
175,Pontarlier,"(6.3546345, 46.9040348)",France,6.3546345,46.9040348
176,Gap,"(6.0820639, 44.5612032)",France,6.0820639,44.5612032
177,"Circuit de la Prairie, Caen",,,,
178,La Ruchère,"(5.8076539, 45.4157349)",France,5.8076539,45.4157349
179,Alès,"(4.0852818, 44.1253665)",France,4.0852818,44.1253665
180,Aigurande,"(1.8295876, 46.4342921)",France,1.8295876,46.4342921
181,Lanester,"(-3.3444489, 47.7639726)",France,-3.3444489,47.7639726
182,Saint-Vincent,"(-61.2765569, 12.90447)",aint Vincent and the Grenadines,-61.2765569,12.90447
183,Vitre,"(-1.214331, 48.1244503)",France,-1.214331,48.1244503
184,Tournai,"(3.3878179, 50.6056458)",België / Belgique / Belgien,3.3878179,50.6056458
185,Turin,"(7.6824892, 45.0677551)",Italia,7.6824892,45.0677551
186,Puy de Dôme,"(3.0839934206717934, 45.7715343)",France,3.0839934206717934,45.7715343
187,Avranches,"(-1.3634379895766875, 48.688189)",France,-1.3634379895766875,48.688189
188,Saint-Trivier-sur-Moignans,"(4.89387269201019, 46.0631873)",France,4.89387269201019,46.0631873
189,Joigny,"(3.3995767, 47.9812486)",France,3.3995767,47.9812486
190,Montjuïc circuit,"(2.1582485, 41.3642113)",España,2.1582485,41.3642113
191,Pinerolo,"(7.3319454, 44.8873086)",Italia,7.3319454,44.8873086
192,Fleurance,"(0.6640617, 43.849295)",France,0.6640617,43.849295
193,Prato Nevoso,"(7.7855885, 44.2552915)",Italia,7.7855885,44.2552915
194,Moutiers,"(5.9669258, 49.2332157)",France,5.9669258,49.2332157
195,Lac de Vassivière,"(1.9005095420269495, 45.798008100000004)",France,1.9005095420269495,45.798008100000004
196,Karlsruhe,"(8.4034195, 49.0068705)",Deutschland,8.4034195,49.0068705
197,Biarritz,"(-1.5592776, 43.4832523)",France,-1.5592776,43.4832523
198,La Planche des Belles Filles,"(6.7735372, 47.7671922)",France,6.7735372,47.7671922
199,Valenciennes,"(3.5234846, 50.3579317)",France,3.5234846,50.3579317
200,Rungis,"(2.3472665, 48.7484048)",France,2.3472665,48.7484048
201,Super-Lioran,"(2.7491802, 45.083144)",France,2.7491802,45.083144
202,Cherbourg-en-Cotentin,"(-1.6249565, 49.6425343)",France,-1.6249565,49.6425343
203,Clermont-Ferrand,"(3.0819427, 45.7774551)",France,3.0819427,45.7774551
204,Tignes,"(6.907594, 45.4697293)",France,6.907594,45.4697293
205,York,"(-1.0815361, 53.9590555)",United Kingdom,-1.0815361,53.9590555
206,Nogent-sur-Oise,"(2.4676727, 49.2744711)",France,2.4676727,49.2744711
207,Scheveningen,"(4.2736937, 52.1067449)",Nederland,4.2736937,52.1067449
208,Col du Tourmalet,"(0.1452852, 42.9083885)",France,0.1452852,42.9083885
209,Les Arcs,"(6.4786269, 43.4629097)",France,6.4786269,43.4629097
210,Voreppe,"(5.6359049, 45.2927216)",France,5.6359049,45.2927216
211,Fontaine,"(5.6869624, 45.1950183)",France,5.6869624,45.1950183
212,Amiens,"(2.2956951, 49.8941708)",France,2.2956951,49.8941708
213,Pauillac,"(-0.7484994, 45.1995626)",France,-0.7484994,45.1995626
214,Lac de Madine,"(5.749502258220149, 48.91700605)",France,5.749502258220149,48.91700605
215,Utrecht,"(5.12768396945229, 52.080985600000005)",Nederland,5.12768396945229,52.080985600000005
216,Hendaye,"(-1.7616499, 43.3641518)",France,-1.7616499,43.3641518
217,La Défense,"(2.2412078, 48.891008)",France,2.2412078,48.891008
218,Montélimar,"(4.750318, 44.5579391)",France,4.750318,44.5579391
219,Alpe d'Huez,"(9.5957767, 56.1305266)",Danmark,9.5957767,56.1305266
220,Argentan,"(-0.0223695, 48.7428859)",France,-0.0223695,48.7428859
221,Evreux,"(1.1510164, 49.0268903)",France,1.1510164,49.0268903
222,Besse-en-Chandesse,"(2.9329614, 45.5115738)",France,2.9329614,45.5115738
223,Monaco,"(7.424224092532953, 43.73844905)",onaco,7.424224092532953,43.73844905
224,Jaunay-Clan,"(0.36249102317505283, 46.6945306)",France,0.36249102317505283,46.6945306
225,Oyonnax,"(5.673359347171946, 46.2476592)",France,5.673359347171946,46.2476592
226,Mont Saint-Michel,"(-1.511459954959514, 48.6359541)",France,-1.511459954959514,48.6359541
227,Châtel,"(6.8412678, 46.2671987)",France,6.8412678,46.2671987
228,Semur-en-Auxois,"(4.3328705, 47.4902149)",France,4.3328705,47.4902149
229,Crans-Montana,"(7.526435803722132, 46.3304899)",Schweiz/Suisse/Svizzera/Svizra,7.526435803722132,46.3304899
230,Trets,"(5.695837861753616, 43.445064900000006)",France,5.695837861753616,43.445064900000006
231,Saint-Gilles-Croix-de-Vie,"(-1.9254545, 46.692985)",France,-1.9254545,46.692985
232,Oloron-Sainte-Marie,"(-0.6115586, 43.1922408)",France,-0.6115586,43.1922408
233,Vaison-la-Romaine,"(5.075737, 44.2407641)",France,5.075737,44.2407641
234,Châteaulin,"(-4.0916875, 48.1968026)",France,-4.0916875,48.1968026
235,Le Puy,"(0.0738889, 44.6619444)",France,0.0738889,44.6619444
236,Aime,"(6.6229794183746336, 45.5555869)",France,6.6229794183746336,45.5555869
237,Poitiers,"(0.340196, 46.5802596)",France,0.340196,46.5802596
238,Morzine,"(6.7091057, 46.1799561)",France,6.7091057,46.1799561
239,Passage du Gois,"(-2.8898822, 47.5824796)",France,-2.8898822,47.5824796
240,Peyragudes,"(0.4561131095802365, 42.7807436)",France,0.4561131095802365,42.7807436
241,Rennes,"(-1.6800198, 48.1113387)",France,-1.6800198,48.1113387
242,Laplume,"(0.531008, 44.1132833)",France,0.531008,44.1132833
243,Herentals,"(4.83462866367042, 51.1855307)",België / Belgique / Belgien,4.83462866367042,51.1855307
244,Cergy-Pontoise,"(2.0388736, 49.0527528)",France,2.0388736,49.0527528
245,Viry-Châtillon,"(2.3750351, 48.6708729)",France,2.3750351,48.6708729
246,Vielha Val d'Aran,"(0.7954744, 42.7017572)",España,0.7954744,42.7017572
247,Rodez,"(2.5727883, 44.3513062)",France,2.5727883,44.3513062
248,Périgueux,"(0.7184407, 45.1909365)",France,0.7184407,45.1909365
249,Figeac,"(2.0324321, 44.6092335)",France,2.0324321,44.6092335
250,Saint-Pourçain-sur-Sioule,"(3.2899107, 46.3074423)",France,3.2899107,46.3074423
251,Argelès-Gazost,"(-0.0997681, 43.00511)",France,-0.0997681,43.00511
252,Valence,"(-0.3763353, 39.4697065)",España,-0.3763353,39.4697065
253,Dinan,"(-2.047687, 48.4539775)",France,-2.047687,48.4539775
254,Limoux,"(2.2176533, 43.0538068)",France,2.2176533,43.0538068
255,Guéret,"(1.8713349, 46.1686865)",France,1.8713349,46.1686865
256,Moûtiers,"(6.5340061, 45.4849883)",France,6.5340061,45.4849883
257,West Berlin,"(-64.5827869, 44.0742673)",Canada,-64.5827869,44.0742673
258,Pamiers,"(1.6082177, 43.1147515)",France,1.6082177,43.1147515
259,Cap d'Agde,"(3.5117752, 43.2845374)",France,3.5117752,43.2845374
260,Saint-Émilion,"(-0.1560662, 44.8931452)",France,-0.1560662,44.8931452
261,Esch-sur-Alzette,"(5.9850306, 49.4959628)",Lëtzebuerg,5.9850306,49.4959628
262,Girona,"(2.8199439, 41.9793006)",España,2.8199439,41.9793006
263,Bourg-de-Péage,"(5.0520015, 45.0354375)",France,5.0520015,45.0354375
264,Eymet,"(0.3984795, 44.6681229)",France,0.3984795,44.6681229
265,Senlis,"(2.1523287, 50.5331612)",France,2.1523287,50.5331612
266,Möhlin,"(7.8431299, 47.560991)",Schweiz/Suisse/Svizzera/Svizra,7.8431299,47.560991
267,Bourg-lès-Valence,"(4.8953847, 44.9528222)",France,4.8953847,44.9528222
268,Givors,"(4.7696529, 45.5844238)",France,4.7696529,45.5844238
269,Saint-Malo,"(-2.0260409, 48.649518)",France,-2.0260409,48.649518
270,Ville-d'Avray,"(2.1894241, 48.8279362)",France,2.1894241,48.8279362
271,Le Cap d'Agde,"(3.502283754025185, 43.2864503)",France,3.502283754025185,43.2864503
272,Saint Gervais-les-Bains,"(6.7113338, 45.8928549)",France,6.7113338,45.8928549
273,Bellegarde-sur-Valserine,"(5.830749559824268, 46.1073321)",France,5.830749559824268,46.1073321
274,Bagnères-de-Bigorre,"(0.1530914, 43.0658212)",France,0.1530914,43.0658212
275,Charleville,"(3.6664318, 48.813549)",France,3.6664318,48.813549
276,Longwy,"(5.7679082, 49.5145564)",France,5.7679082,49.5145564
277,Nantua,"(5.6058987, 46.1534255)",France,5.6058987,46.1534255
278,Samatan,"(0.9316667, 43.4936111)",France,0.9316667,43.4936111
279,Brest,"(-4.4860088, 48.3905283)",France,-4.4860088,48.3905283
280,Charleville-Mézières,"(4.7206939, 49.7735712)",France,4.7206939,49.7735712
281,Amsterdam,"(4.8936041, 52.3727598)",Nederland,4.8936041,52.3727598
282,Évry,"(3.25604, 48.26406)",France,3.25604,48.26406
283,Saint-Amand-les-Eaux,"(3.4281142, 50.4491519)",France,3.4281142,50.4491519
284,La Rochelle,"(-1.1520434, 46.1591126)",France,-1.1520434,46.1591126
285,Évreux,"(1.1510164, 49.0268903)",France,1.1510164,49.0268903
286,Pontchâteau,"(-2.0880233, 47.4373374)",France,-2.0880233,47.4373374
287,Saint-Herblain,"(-1.6346964, 47.2233007)",France,-1.6346964,47.2233007
288,Cholet,"(-0.8801349, 47.0617293)",France,-0.8801349,47.0617293
289,Frankfurt,"(8.6820917, 50.1106444)",Deutschland,8.6820917,50.1106444
290,Valence d'Agen,"(0.8902778, 44.1111111)",France,0.8902778,44.1111111
291,Calais,"(1.8538446, 50.9524769)",France,1.8538446,50.9524769
292,Trouville,"(0.6010584, 49.5732368)",France,0.6010584,49.5732368
293,Châteauroux,"(1.6770956, 46.8203785)",France,1.6770956,46.8203785
294,Lézignan-Corbières,"(2.7574981, 43.2008841)",France,2.7574981,43.2008841
295,Belfort,"(6.8628942, 47.6379599)",France,6.8628942,47.6379599
296,Roanne,"(4.0729178, 46.0345572)",France,4.0729178,46.0345572
297,La Mongie,"(-1.3330366, 47.0306867)",France,-1.3330366,47.0306867
298,Saint-Léonard-de-Noblat,"(1.4924586, 45.8377349)",France,1.4924586,45.8377349
299,Rossignol Voiron,,,,
300,Dax,"(-1.0518771, 43.7084065)",France,-1.0518771,43.7084065
301,Rouen,"(1.0939658, 49.4404591)",France,1.0939658,49.4404591
302,Menton,"(7.5029213, 43.7753495)",France,7.5029213,43.7753495
303,Les Menuires,"(6.5388965, 45.3242744)",France,6.5388965,45.3242744
304,Sallanches,"(6.6302551, 45.9361246)",France,6.6302551,45.9361246
305,Plateau de Bonascre,"(1.8154193, 42.7014614)",France,1.8154193,42.7014614
306,Carpentras,"(5.0487681, 44.0554043)",France,5.0487681,44.0554043
307,Wanze,"(5.2143865, 50.5368559)",België / Belgique / Belgien,5.2143865,50.5368559
308,Évian-les-Bains,"(6.581331041801459, 46.3910965)",France,6.581331041801459,46.3910965
309,Montaigu,"(3.83264, 49.535)",France,3.83264,49.535
310,Toulouse,"(1.4442469, 43.6044622)",France,1.4442469,43.6044622
311,Valloire,"(6.4290103, 45.165058)",France,6.4290103,45.165058
312,Troyes,"(4.0746257, 48.2971626)",France,4.0746257,48.2971626
313,Méribel,"(-88.14579612460193, 42.03009625)",United States,-88.14579612460193,42.03009625
314,Embrun,"(6.4958189, 44.5641764)",France,6.4958189,44.5641764
315,Courchevel,"(6.6349892, 45.4140984)",France,6.6349892,45.4140984
316,Chalon-sur-Saône,"(4.8529605, 46.7888997)",France,4.8529605,46.7888997
317,Seraing,"(5.5089437, 50.6152381)",België / Belgique / Belgien,5.5089437,50.6152381
318,Versailles,"(2.1266886, 48.8035403)",France,2.1266886,48.8035403
319,Saint-Lary-Soulan Pla d'Adet,"(0.2947084, 42.8125539)",France,0.2947084,42.8125539
320,Cancale,"(-1.8506953, 48.6771721)",France,-1.8506953,48.6771721
321,Dover,"(1.3134228, 51.1251275)",United Kingdom,1.3134228,51.1251275
322,Liège,"(5.5734203, 50.6451381)",België / Belgique / Belgien,5.5734203,50.6451381
323,Lausanne,"(6.6327025, 46.5218269)",Schweiz/Suisse/Svizzera/Svizra,6.6327025,46.5218269
324,Laon,"(3.620686, 49.564665)",France,3.620686,49.564665
325,Montargis,"(2.7310072, 47.9978628)",France,2.7310072,47.9978628
326,Saint-Galmier,"(4.3183716, 45.5903147)",France,4.3183716,45.5903147
327,Maubeuge,"(3.9674127, 50.2796417)",France,3.9674127,50.2796417
328,Saint-Gervais,"(5.4820229, 45.2022356)",France,5.4820229,45.2022356
329,Verviers,"(5.867828, 50.59324)",België / Belgique / Belgien,5.867828,50.59324
330,Neuchâtel,"(6.9292641, 46.9895828)",Schweiz/Suisse/Svizzera/Svizra,6.9292641,46.9895828
331,Vire,"(-0.8872594458318377, 48.8517468)",France,-0.8872594458318377,48.8517468
332,Avoriaz,"(6.7702857, 46.1925439)",France,6.7702857,46.1925439
333,Villers-sur-Mer,"(-0.0052517, 49.3214437)",France,-0.0052517,49.3214437
334,Compiègne,"(2.8263171, 49.4179497)",France,2.8263171,49.4179497
335,Bourg-Saint-Andéol,"(4.6457565, 44.3707629)",France,4.6457565,44.3707629
336,Arpajon,"(2.2477303, 48.5902899)",France,2.2477303,48.5902899
337,Evian,"(7.2005023, 45.7108265)",Italia,7.2005023,45.7108265
338,Brasschaat,"(4.4917295, 51.2900693)",België / Belgique / Belgien,4.4917295,51.2900693
339,Sint-Niklaas,"(4.1395124, 51.1646685)",België / Belgique / Belgien,4.1395124,51.1646685
340,Le Havre,"(0.1079732, 49.4938975)",France,0.1079732,49.4938975
341,Seignosse le Penon,"(-1.4269704, 43.7061728)",France,-1.4269704,43.7061728
342,Rotterdam,"(4.47775, 51.9244424)",Nederland,4.47775,51.9244424
343,Montpon-Ménestérol,"(0.15672815508290233, 45.01624955)",France,0.15672815508290233,45.01624955
344,Challans,"(-1.8773787, 46.847943)",France,-1.8773787,46.847943
345,Le Puy-en-Velay,"(3.8855537, 45.0459739)",France,3.8855537,45.0459739
346,Royan,"(-1.0287636, 45.6245332)",France,-1.0287636,45.6245332
347,Charleroi,"(4.4436244, 50.4120332)",België / Belgique / Belgien,4.4436244,50.4120332
348,Sète,"(3.6959771, 43.4014434)",France,3.6959771,43.4014434
349,Les Essarts,"(0.9921207721113022, 48.880996999999994)",France,0.9921207721113022,48.880996999999994
350,Annecy,"(6.1288847, 45.8992348)",France,6.1288847,45.8992348
351,Modane,"(6.6728169, 45.2015369)",France,6.6728169,45.2015369
352,Bastia,"(9.4512866, 42.7008676)",France,9.4512866,42.7008676
353,Mont des Alouettes,"(-1.0102582, 46.8947736)",France,-1.0102582,46.8947736
354,Mayenne,"(-0.6491273812007092, 48.1507819)",France,-0.6491273812007092,48.1507819
355,Saint-Dier-d'Auvergne,"(3.4818948, 45.6758768)",France,3.4818948,45.6758768
356,Le Creusot,"(4.4285961, 46.8054064)",France,4.4285961,46.8054064
357,Louvroil,"(3.9623154, 50.2644717)",France,3.9623154,50.2644717
358,Bar-le-Duc,"(5.1623805, 48.7712673)",France,5.1623805,48.7712673
359,St. Brieuc,"(-2.7603283, 48.5141134)",France,-2.7603283,48.5141134
360,Sheffield,"(-1.4702278, 53.3806626)",United Kingdom,-1.4702278,53.3806626
361,Val d'Aran/Pla-de-Beret,"(0.9471485, 42.7111635)",España,0.9471485,42.7111635
362,Labastide-d'Armagnac,"(-0.1855262, 43.9696038)",France,-0.1855262,43.9696038
363,Ivrea,"(7.874797, 45.4673791)",Italia,7.874797,45.4673791
364,Beringen,"(5.220809082300834, 51.0502026)",België / Belgique / Belgien,5.220809082300834,51.0502026
365,La Guerche-de-Bretagne,"(-1.231454, 47.9426332)",France,-1.231454,47.9426332
366,Saint-Denis,"(2.3580232, 48.935773)",France,2.3580232,48.935773
367,Grenoble,"(5.7357819, 45.1875602)",France,5.7357819,45.1875602
368,Mâcon,"(4.8322266, 46.3036683)",France,4.8322266,46.3036683
369,Val-Louron,"(0.3899518, 42.791965)",France,0.3899518,42.791965
370,La Toussuire-Les Sybelles,"(6.254302998917014, 45.2637202)",France,6.254302998917014,45.2637202
371,Waterloo,"(-92.3328743, 42.498275)",United States,-92.3328743,42.498275
372,Maastricht,"(5.6909768, 50.8512438)",Nederland,5.6909768,50.8512438
373,Ax-les-Thermes,"(1.8379765, 42.7193597)",France,1.8379765,42.7193597
374,Huy,"(5.2408138, 50.5180856)",België / Belgique / Belgien,5.2408138,50.5180856
375,Ghent,"(3.7250121, 51.0538286)",België / Belgique / Belgien,3.7250121,51.0538286
376,Digne-les-Bains,"(6.2351431, 44.0918144)",France,6.2351431,44.0918144
377,Le Mans,"(0.1967849, 48.0073849)",France,0.1967849,48.0073849
378,Mende,"(3.4991057, 44.5180226)",France,3.4991057,44.5180226
379,Circuit des Essarts,"(1.0140565, 49.3383769)",France,1.0140565,49.3383769
380,Bern,"(7.4514512, 46.9482713)",Schweiz/Suisse/Svizzera/Svizra,7.4514512,46.9482713
381,Cugnaux,"(1.3457537, 43.5369936)",France,1.3457537,43.5369936
382,L'Isle-d'Abeau,"(5.2298398, 45.6230017)",France,5.2298398,45.6230017
383,Albertville,"(6.3925417, 45.6754622)",France,6.3925417,45.6754622
384,Antibes,"(7.10905, 43.5836)",France,7.10905,43.5836
385,Villeurbanne,"(4.886899, 45.7733124)",France,4.886899,45.7733124
386,Lannion,"(-3.4587994, 48.7322183)",France,-3.4587994,48.7322183
387,Divonne-les-Bains,"(6.122142756112563, 46.3753281)",France,6.122142756112563,46.3753281
388,Cambridge,"(0.1186637, 52.2055314)",United Kingdom,0.1186637,52.2055314
389,Albi,"(2.147899, 43.9277552)",France,2.147899,43.9277552
390,Épinal,"(6.4503643, 48.1747684)",France,6.4503643,48.1747684
391,Arras,"(2.7772211, 50.291048)",France,2.7772211,50.291048
392,Besançon,"(6.0243622, 47.2380222)",France,6.0243622,47.2380222
393,Pantin,"(2.4019804, 48.8965023)",France,2.4019804,48.8965023
394,Super Besse,"(2.8561577, 45.5114582)",France,2.8561577,45.5114582
395,Culoz,"(5.785315423820098, 45.8556974)",France,5.785315423820098,45.8556974
396,Millau,"(3.0777594, 44.1006693)",France,3.0777594,44.1006693
397,Jausiers,"(6.7340119, 44.4194297)",France,6.7340119,44.4194297
398,Annonay-Davézieux,"(4.6941932, 45.2518462)",France,4.6941932,45.2518462
399,Montauban,"(1.3549991, 44.0175835)",France,1.3549991,44.0175835
400,La Châtaigneraie,"(-0.7391667, 46.65)",France,-0.7391667,46.65
401,Gaillac,"(1.8967943, 43.9016766)",France,1.8967943,43.9016766
402,Colomiers,"(1.3282149, 43.6121001)",France,1.3282149,43.6121001
403,Carcassonne,"(2.3491069, 43.2130358)",France,2.3491069,43.2130358
404,Trélissac,"(0.7835042, 45.1970172)",France,0.7835042,45.1970172
405,Marcoussis,"(2.2310497, 48.6432483)",France,2.2310497,48.6432483
406,Cherbourg,"(-1.6249565, 49.6425343)",France,-1.6249565,49.6425343
407,Pal,"(1.4759787, 42.5457992)",Andorra,1.4759787,42.5457992
408,Chaumont,"(5.1395849, 48.1111324)",France,5.1395849,48.1111324
409,Mont Ventoux,"(5.2783976, 44.1739649)",France,5.2783976,44.1739649
410,Le Blanc,"(1.062694, 46.633292)",France,1.062694,46.633292
411,Tulle,"(1.7706797, 45.2678347)",France,1.7706797,45.2678347
412,Argelès-sur-Mer,"(3.0300793, 42.5490447)",France,3.0300793,42.5490447
413,Fontenay-sous-Bois,"(2.4749347, 48.8490721)",France,2.4749347,48.8490721
414,Bourg-Saint-Maurice,"(6.7694313, 45.6185284)",France,6.7694313,45.6185284
415,Bourg-en-Bresse,"(5.2250324, 46.2051192)",France,5.2250324,46.2051192
416,Arenberg Porte du Hainaut,"(3.4268928, 50.3841596)",France,3.4268928,50.3841596
417,Maubourguet Pays du Val d’Adour,,,,
418,Boulogne-sur-Mer,"(1.6118771, 50.7259985)",France,1.6118771,50.7259985
419,Pouilly-en-Auxois,"(4.5561961, 47.2622415)",France,4.5561961,47.2622415
420,Le Touquet,"(2.9126738, 50.7112526)",België / Belgique / Belgien,2.9126738,50.7112526
421,Carhaix,"(-3.562236004658576, 48.2780042)",France,-3.562236004658576,48.2780042
422,Sablé-sur-Sarthe,"(-0.3352048, 47.8400712)",France,-0.3352048,47.8400712
423,Castelnaudary,"(1.9533495, 43.3192021)",France,1.9533495,43.3192021
424,Peyrehorade,"(-1.105088, 43.5440941)",France,-1.105088,43.5440941
425,Niort,"(-0.4649403, 46.3241132)",France,-0.4649403,46.3241132
426,Bagnoles-de-l'Orne,"(-0.4229186, 48.5539388)",France,-0.4229186,48.5539388
427,London,"(-0.1276474, 51.5073219)",United Kingdom,-0.1276474,51.5073219
428,Montluçon,"(2.6072057, 46.3396952)",France,2.6072057,46.3396952
429,Loudenvielle,"(0.432756430914433, 42.75075665)",France,0.432756430914433,42.75075665
430,Frontignan la Peyrade,"(3.7266105, 43.4264271)",France,3.7266105,43.4264271
431,Orcières,"(6.3267475, 44.6833203)",France,6.3267475,44.6833203
432,Chartres,"(1.4881434, 48.4438601)",France,1.4881434,48.4438601
433,Bourg-d'Oisans,"(6.0278356, 45.0555411)",France,6.0278356,45.0555411
434,Disneyland Paris,"(2.7755419640677923, 48.87231975)",France,2.7755419640677923,48.87231975
435,Portsmouth,"(-1.075614, 50.8036831)",United Kingdom,-1.075614,50.8036831
436,Valkenburg,"(5.8312518, 50.8647531)",Nederland,5.8312518,50.8647531
437,Porrentruy,"(7.0761342, 47.4171297)",Schweiz/Suisse/Svizzera/Svizra,7.0761342,47.4171297
438,Sint-Pieters-Woluwe,"(4.4274636, 50.8370253)",België / Belgique / Belgien,4.4274636,50.8370253
439,Saint-Lô,"(-1.0906637, 49.1157004)",France,-1.0906637,49.1157004
440,Bonneval,"(1.3840504680157402, 48.17890365)",France,1.3840504680157402,48.17890365
441,Soissons,"(3.327613, 49.3837621)",France,3.327613,49.3837621
442,Salies-de-Béarn,"(-0.9234025, 43.4703515)",France,-0.9234025,43.4703515
443,Cosne-sur-Loire,"(2.9319441, 47.4139645)",France,2.9319441,47.4139645
444,Le Bourg-d'Oisans,"(6.0306625, 45.054713)",France,6.0306625,45.054713
445,Avesnes-sur-Helpe,"(3.9321056, 50.1218835)",France,3.9321056,50.1218835
446,Superbagnères,"(0.5767603001553565, 42.767314400000004)",France,0.5767603001553565,42.767314400000004
447,Sainte-Geneviève-des-Bois,"(2.3259129, 48.6407872)",France,2.3259129,48.6407872
448,Pyrénées 2000,"(2.059667, 42.5210406)",France,2.059667,42.5210406
449,Saumur,"(-0.0785177, 47.2596224)",France,-0.0785177,47.2596224
450,Dijon,"(5.0414701, 47.3215806)",France,5.0414701,47.3215806
451,Jambes,"(4.8723252, 50.4589561)",België / Belgique / Belgien,4.8723252,50.4589561
452,Arc-et-Senans,"(5.7818173, 47.0332329)",France,5.7818173,47.0332329
453,Savines-le-Lac,"(6.4049867, 44.5257904)",France,6.4049867,44.5257904
454,Plateau de Beille,"(1.7051011, 42.7145199)",France,1.7051011,42.7145199
455,Lons-le-Saunier,"(5.5589973, 46.6727037)",France,5.5589973,46.6727037
456,Sèvres,"(2.2127083, 48.8247407)",France,2.2127083,48.8247407
457,Cagnes-sur-Mer,"(7.1513834, 43.6612012)",France,7.1513834,43.6612012
458,Plateau-de-Beille,"(1.7051011, 42.7145199)",France,1.7051011,42.7145199
459,Andorra Arcalis,"(1.4912605793978895, 42.6271621)",Andorra,1.4912605793978895,42.6271621
460,Zürich,"(8.5410422, 47.3744489)",Schweiz/Suisse/Svizzera/Svizra,8.5410422,47.3744489
461,La Roche-sur-Yon,"(-1.4269698, 46.6705431)",France,-1.4269698,46.6705431
462,Basel,"(7.5878261, 47.5581077)",Schweiz/Suisse/Svizzera/Svizra,7.5878261,47.5581077
463,Ruffec,"(0.1994619, 46.0287057)",France,0.1994619,46.0287057
464,Barcelonnette,"(6.6513554, 44.3862043)",France,6.6513554,44.3862043
465,Obernai,"(7.4864338937215855, 48.454713999999996)",France,7.4864338937215855,48.454713999999996
466,Mazé-Montgeoffroy,"(-0.27591988185190963, 47.4688575)",France,-0.27591988185190963,47.4688575
467,Bordeaux,"(-0.5800364, 44.841225)",France,-0.5800364,44.841225
468,Thuir,"(2.754368642550069, 42.6382508)",France,2.754368642550069,42.6382508
469,Ajaccio,"(8.7376029, 41.9263991)",France,8.7376029,41.9263991
470,Dunkerque,"(2.3772525, 51.0347708)",France,2.3772525,51.0347708
471,Cap Fréhel,"(-2.318767, 48.6792002)",France,-2.318767,48.6792002
472,Bagnères-de-Luchon,"(0.5912279, 42.7910617)",France,0.5912279,42.7910617
473,Saint-Girons,"(1.140313981833387, 42.966638)",France,1.140313981833387,42.966638
474,Verbier,"(7.2285478, 46.0967949)",Schweiz/Suisse/Svizzera/Svizra,7.2285478,46.0967949
475,Meudon,"(2.2385432, 48.8126688)",France,2.2385432,48.8126688
476,Vannes,"(-2.7599079, 47.6586772)",,-2.7599079,47.6586772
477,Luchon,"(0.5912279, 42.7910617)",,0.5912279,42.7910617
478,Leeds,"(-1.5437941, 53.7974185)",,-1.5437941,53.7974185
479,Damazan,"(0.2751527, 44.2899682)",France,0.2751527,44.2899682
480,Fécamp,"(0.374891, 49.7577729)",France,0.374891,49.7577729
481,Saint-Nazaire,"(-2.2138905, 47.2733517)",France,-2.2138905,47.2733517
482,Chorges,"(6.2754561, 44.5450837)",France,6.2754561,44.5450837
483,Ballon d'Alsace,"(6.8448679, 47.8224909)",France,6.8448679,47.8224909
484,Aubisque,"(-0.4096223, 43.3311751)",France,-0.4096223,43.3311751
485,Orcières-Merlette,"(6.3235516, 44.6972064)",France,6.3235516,44.6972064
486,Bourgoin,"(5.2828123, 45.5872259)",France,5.2828123,45.5872259
487,Paris,"(2.3200410217200766, 48.8588897)",France,2.3200410217200766,48.8588897
488,Saint-Méen-le-Grand,"(-2.1911338, 48.1894709)",France,-2.1911338,48.1894709
489,Captieux,"(-0.2614831, 44.2920456)",France,-0.2614831,44.2920456
490,Wiesbaden,"(8.2416556, 50.0820384)",Deutschland,8.2416556,50.0820384
491,Namur,"(4.8661892, 50.4665284)",België / Belgique / Belgien,4.8661892,50.4665284
492,Ballon d’Alsace,"(6.8448679, 47.8224909)",France,6.8448679,47.8224909
493,Carmaux,"(2.1583033, 44.0496296)",France,2.1583033,44.0496296
494,Liévin,"(2.7738, 50.4245)",France,2.7738,50.4245
495,Saint-Lary Pla d’Adet,"(0.2947084, 42.8125539)",France,0.2947084,42.8125539
496,Laruns,"(-0.4266324, 42.9882368)",France,-0.4266324,42.9882368
497,Nay,"(-0.2621768, 43.1798743)",France,-0.2621768,43.1798743
498,Épinay-sous-Sénart,"(2.5162, 48.6877)",France,2.5162,48.6877
499,Flers,"(2.25255, 50.32053)",France,2.25255,50.32053
500,Canterbury,"(1.0802533, 51.2800275)",United Kingdom,1.0802533,51.2800275
501,Le Grand-Bornand,"(6.4271457, 45.9418675)",France,6.4271457,45.9418675
502,Moirans-en-Montagne,"(5.7255731, 46.431063)",France,5.7255731,46.431063
503,Laissac-Sévérac-l'Église,"(2.8387050307962705, 44.36917755)",France,2.8387050307962705,44.36917755
504,Plymouth,"(-4.1425658, 50.3712659)",United Kingdom,-4.1425658,50.3712659
505,Sceaux,"(4.021844858050334, 47.514728500000004)",France,4.021844858050334,47.514728500000004
506,Mont-de-Marsan,"(-0.500972, 43.8911318)",France,-0.500972,43.8911318
507,Dublin,"(-6.2602732, 53.3497645)",Éire / Ireland,-6.2602732,53.3497645
508,Auch,"(0.5850507, 43.6463558)",France,0.5850507,43.6463558
509,Beveren,"(4.249081329859443, 51.21288495)",België / Belgique / Belgien,4.249081329859443,51.21288495
510,Station des Rousses,"(6.0546024, 46.4557195)",France,6.0546024,46.4557195
511,Villard-de-Lans,"(5.563581928162698, 45.051221749999996)",France,5.563581928162698,45.051221749999996
512,Bayonne,"(-1.475099, 43.4933379)",France,-1.475099,43.4933379
513,Saint-Hilaire-du-Harcouët,"(-1.085461778865405, 48.5714837)",France,-1.085461778865405,48.5714837
514,Toulon,"(5.9304919, 43.1257311)",France,5.9304919,43.1257311
515,Aubenas,"(4.3975879349808835, 44.61059285)",France,4.3975879349808835,44.61059285
516,Cluses,"(6.5804218, 46.0603171)",France,6.5804218,46.0603171
517,Pont l'Evêque,"(2.9880799, 49.5643305)",France,2.9880799,49.5643305
518,Commercy,"(5.5914753, 48.763203)",France,5.5914753,48.763203
519,Nice,"(7.2683912, 43.7009358)",France,7.2683912,43.7009358
520,Barcelona ,"(2.1774322, 41.3828939)",España,2.1774322,41.3828939
521,Vesoul,"(6.1544694, 47.6197395)",France,6.1544694,47.6197395
522,Montgeron,"(2.4605107, 48.7038873)",France,2.4605107,48.7038873
523,Perros-Guirec,"(-3.4394662, 48.8151133)",France,-3.4394662,48.8151133
524,Saint-Quentin-en-Yvelines,"(2.015952118728746, 48.7818613)",France,2.015952118728746,48.7818613
525,Châlons-sur-Marne,"(4.3628851, 48.9566218)",France,4.3628851,48.9566218
526,Dole,"(5.4925463, 47.0921047)",France,5.4925463,47.0921047
527,Morzine-Avoriaz,"(6.7702857, 46.1925439)",France,6.7702857,46.1925439
528,Dôle,"(5.4925463, 47.0921047)",France,5.4925463,47.0921047
529,Saint Grégoire,"(-1.685398, 48.1524129)",France,-1.685398,48.1524129
530,Hyères,"(6.1301614, 43.1202573)",France,6.1301614,43.1202573
531,Font-Romeu-Odeillo-Via,"(2.0416766, 42.4965705)",France,2.0416766,42.4965705
532,Bourg-Madame,"(1.9434203, 42.4347431)",France,1.9434203,42.4347431
533,Renazé,"(-1.0557842, 47.793333)",France,-1.0557842,47.793333
534,Mons,"(3.951958, 50.4549568)",België / Belgique / Belgien,3.951958,50.4549568
535,Créteil,"(2.4530731, 48.7771486)",France,2.4530731,48.7771486
536,Felsberg,"(9.477555, 46.8460537)",Schweiz/Suisse/Svizzera/Svizra,9.477555,46.8460537
537,Circuit Zolder,"(5.257665697426884, 50.990236949999996)",België / Belgique / Belgien,5.257665697426884,50.990236949999996
538,Aurillac,"(2.4433101, 44.9285441)",France,2.4433101,44.9285441
539,Corbeil-Essonnes,"(2.4818087, 48.6137734)",France,2.4818087,48.6137734
540,Martigny,"(4.1375, 49.8597222)",France,4.1375,49.8597222
541,Fromentine,"(-2.1366623, 46.8896706)",France,-2.1366623,46.8896706
542,Limoges,"(1.2644847, 45.8354243)",France,1.2644847,45.8354243
543,Saint-Julien-en-Genevois,"(6.0812467, 46.1444789)",France,6.0812467,46.1444789
544,Draguignan,"(6.4627333, 43.5374662)",France,6.4627333,43.5374662
545,Brive,"(5.7977896, 46.3738887)",France,5.7977896,46.3738887
546,Champagnole,"(5.9083581, 46.7456049)",France,5.9083581,46.7456049
547,Montpellier,"(3.8767337, 43.6112422)",France,3.8767337,43.6112422
548, Brighton,"(-0.12693017575934035, 50.8389149)",United Kingdom,-0.12693017575934035,50.8389149
549,Villeneuve-sur-Lot,"(0.7046455, 44.4056615)",France,0.7046455,44.4056615
550,Sainte-Foy-la-Grande,"(0.214969, 44.8416496)",France,0.214969,44.8416496
551,Douai,"(3.078171805106893, 50.3799863)",France,3.078171805106893,50.3799863
552,Cologne,"(6.959974, 50.938361)",Deutschland,6.959974,50.938361
553,Geneva,"(6.1466014, 46.2017559)",Schweiz/Suisse/Svizzera/Svizra,6.1466014,46.2017559
554,Val d'Isère,"(6.9804421, 45.4498666)",France,6.9804421,45.4498666
555,Lyon,"(4.8320114, 45.7578137)",France,4.8320114,45.7578137
556,Lézat-sur-Lèze,"(1.34623, 43.2773)",France,1.34623,43.2773
557,Chaumeil,"(1.8808583, 45.4555541)",France,1.8808583,45.4555541
558,Besse,"(6.16986, 45.0714767)",France,6.16986,45.0714767
559,Pamplona,"(-1.6442556, 42.8184538)",España,-1.6442556,42.8184538
560,Aubagne,"(5.5703031, 43.2924385)",France,5.5703031,43.2924385
561,Narbonne,"(3.0042121, 43.1837661)",France,3.0042121,43.1837661
562,Châtellerault,"(0.545812, 46.8180047)",France,0.545812,46.8180047
563,Martigues,"(5.0548176, 43.4057279)",France,5.0548176,43.4057279
564,Le Lioran,"(2.7503788, 45.0912003)",France,2.7503788,45.0912003
565,Gaillard,"(6.211169, 46.1838437)",France,6.211169,46.1838437
566,Bastogne,"(5.7173386, 50.0023102)",België / Belgique / Belgien,5.7173386,50.0023102
567,Bornem,"(4.238967723449794, 51.09096325)",België / Belgique / Belgien,4.238967723449794,51.09096325
568,Ypres,"(2.891473683275896, 50.85169675)",België / Belgique / Belgien,2.891473683275896,50.85169675
569,Vitré,"(-1.214331, 48.1244503)",France,-1.214331,48.1244503
570,Mulhouse,"(7.3389937, 47.7467233)",France,7.3389937,47.7467233
571,Mülhausen,"(7.3389937, 47.7467233)",France,7.3389937,47.7467233
572,Saint-Dizier,"(4.9473513, 48.6371125)",France,4.9473513,48.6371125
573,Issoire,"(3.2449840737596505, 45.54420155)",France,3.2449840737596505,45.54420155
574,Lavelanet,"(1.8487179, 42.9332121)",France,1.8487179,42.9332121
575,Noirmoutier-en-l'Île,"(-2.2441449, 47.000089)",France,-2.2441449,47.000089
576,Saint-Raphaël,"(1.0747165, 45.3043079)",France,1.0747165,45.3043079
577,Villié-Morgon,"(4.6812724, 46.1612385)",France,4.6812724,46.1612385
578,Marseille,"(5.3699525, 43.2961743)",France,5.3699525,43.2961743
579,Nemours,"(2.6953079, 48.268026)",France,2.6953079,48.268026
580,La Tour-du-Pin,"(5.4424054, 45.5666202)",France,5.4424054,45.5666202
581,Bobigny,"(2.4452231, 48.906387)",France,2.4452231,48.906387
582,Brioude,"(3.3853711, 45.293897)",France,3.3853711,45.293897
583,Thonon-les-Bains,"(6.4779448, 46.3731303)",France,6.4779448,46.3731303
584,L'Isle-Jourdain,"(1.08426252814849, 43.615923050000006)",France,1.08426252814849,43.615923050000006
585,Auray,"(-2.9833718, 47.6664485)",France,-2.9833718,47.6664485
586,Béziers,"(3.2131307, 43.3426562)",France,3.2131307,43.3426562
587,Armentières,"(2.882169, 50.6867281)",France,2.882169,50.6867281
588,Dieppe,"(1.0791444, 49.9246182)",France,1.0791444,49.9246182
589,Altkirch ,"(7.2401542, 47.6238204)",France,7.2401542,47.6238204
590,Finhaut-Émosson,"(6.9358956, 46.0683065)",Schweiz/Suisse/Svizzera/Svizra,6.9358956,46.0683065
591,Ales,"(8.815632, 39.768245)",Italia,8.815632,39.768245
592,Castillon-la-Bataille,"(-0.0450873, 44.8533324)",France,-0.0450873,44.8533324
593,Dunkirk,"(2.3772525, 51.0347708)",France,2.3772525,51.0347708
594,Foix,"(1.6053807, 42.9638998)",France,1.6053807,42.9638998
595,Saint-Jean-de-Monts,"(-2.0588889, 46.7936111)",France,-2.0588889,46.7936111
596,Luçon,"(-1.1645595, 46.4555953)",France,-1.1645595,46.4555953
597,Piau-Engaly,"(0.15861350650914335, 42.78020745)",France,0.15861350650914335,42.78020745
598,Blaye-les-Mines,"(2.1323326, 44.0301194)",France,2.1323326,44.0301194
599,Ax 3 Domaines,"(1.815291863288256, 42.70068245)",France,1.815291863288256,42.70068245
600,Risoul,"(6.6387088, 44.6491889)",France,6.6387088,44.6491889
601,Metz,"(6.1763552, 49.1196964)",France,6.1763552,49.1196964
602,Cuneo,"(7.558136691151624, 44.45807035)",Italia,7.558136691151624,44.45807035
603,Val-d'Isère,"(6.9804421, 45.4498666)",France,6.9804421,45.4498666
604,Utah Beach,"(-1.1747033, 49.4156657)",France,-1.1747033,49.4156657
605,Villers-Cotterêts,"(3.0909275, 49.2549479)",France,3.0909275,49.2549479
606,Pornichet,"(-2.3364238, 47.2613293)",France,-2.3364238,47.2613293
607,Mers-les-Bains,"(1.3889703, 50.0656325)",,1.3889703,50.0656325
608,Brétigny-sur-Orge,"(2.3075288, 48.6099887)",,2.3075288,48.6099887
609,Gex,"(6.0588831, 46.3324378)",,6.0588831,46.3324378
610,Arbois,"(5.7727504, 46.9032246)",,5.7727504,46.9032246
611,Bourgoin-Jallieu,"(5.2828123, 45.5872259)",,5.2828123,45.5872259
612,Sens,"(3.282606, 48.1978559)",,3.282606,48.1978559
613,Andorra-Arcalis,"(1.4912605793978895, 42.6271621)",,1.4912605793978895,42.6271621
614,Blagnac,"(1.37799, 43.6434)",France,1.37799,43.6434
615,St. Etienne,"(4.3873058, 45.4401467)",France,4.3873058,45.4401467
616,Palaiseau,"(2.2453842, 48.7144587)",France,2.2453842,48.7144587
617,Le Barcarès,"(3.0335243, 42.7946794)",France,3.0335243,42.7946794
618,Perpignan,"(2.8953121, 42.6985304)",France,2.8953121,42.6985304
619,Bron,"(4.9092352, 45.7337532)",France,4.9092352,45.7337532
620,Bourges,"(2.3991583, 47.0811608)",France,2.3991583,47.0811608
621,Machecoul,"(-1.848034198853211, 46.9919694)",France,-1.848034198853211,46.9919694
622,Les Deux Alpes,"(6.1237609, 45.0099949)",France,6.1237609,45.0099949
623,Olonne-sur-Mer,"(-1.7687019, 46.5358685)",France,-1.7687019,46.5358685
624,Sisteron,"(5.9443791, 44.1963467)",France,5.9443791,44.1963467
625,Blain,"(-1.7643647, 47.4755536)",France,-1.7643647,47.4755536
626,St Gervais,"(5.4820229, 45.2022356)",France,5.4820229,45.2022356
627,Abbeville,"(1.8337029, 50.1060835)",France,1.8337029,50.1060835
628,Laval,"(-0.7734022, 48.0706687)",France,-0.7734022,48.0706687
629,Roquefort-sur-Soulzon,"(2.9904721, 43.9761756)",France,2.9904721,43.9761756
630,Annemasse,"(6.2341093, 46.1934005)",France,6.2341093,46.1934005
631,Lans-en-Vercors,"(5.5891386, 45.1277768)",France,5.5891386,45.1277768
632,Saint-Lary-Soulan,"(0.3219538, 42.816936)",France,0.3219538,42.816936
633,Les Orres,"(6.5510313, 44.5140024)",France,6.5510313,44.5140024
634,"Geneva, Switzerland","(6.1466014, 46.2017559)",Schweiz/Suisse/Svizzera/Svizra,6.1466014,46.2017559
635,Chambord,"(0.608853, 48.8896872)",France,0.608853,48.8896872
636,Cognac,"(-0.3250175, 45.6931647)",France,-0.3250175,45.6931647
637,Chambéry,"(5.9203636, 45.5662672)",France,5.9203636,45.5662672
638,La Caverne du Pont-d'Arc,"(4.4267379292452835, 44.4070526)",France,4.4267379292452835,44.4070526
639,Saint-Fargeau,"(3.0722102, 47.6402988)",France,3.0722102,47.6402988
640,Pontoise,"(2.1008067, 49.0508845)",France,2.1008067,49.0508845
641,Cahors,"(1.4364999, 44.4495)",France,1.4364999,44.4495
642,Sedan,"(4.9433409, 49.7033759)",France,4.9433409,49.7033759
643,Bondy,"(2.485074291648317, 48.90374265)",France,2.485074291648317,48.90374265
644,Düsseldorf,"(6.7763137, 51.2254018)",Deutschland,6.7763137,51.2254018
645,'s-Hertogenbosch,"(5.303116, 51.6889387)",Nederland,5.303116,51.6889387
646,Vouvray,"(0.7998446, 47.4136687)",France,0.7998446,47.4136687
647,Semnoz,"(6.1044437, 45.8843289)",France,6.1044437,45.8843289
648,Étampes,"(2.1614464, 48.4344621)",France,2.1614464,48.4344621
649,L'Alpe d'Huez,"(6.0699443, 45.092401)",France,6.0699443,45.092401
650,Alençon,"(0.0911374, 48.4312059)",France,0.0911374,48.4312059
651,Waregem - Compiègne,,,,
652,Ruelle-sur-Touvre,"(0.2186769, 45.6764688)",France,0.2186769,45.6764688
653,Saint-Quentin,"(3.2876843, 49.8465253)",France,3.2876843,49.8465253
654,Tallard,"(6.0553735, 44.4634515)",France,6.0553735,44.4634515
655,Eurotunnel,"(1.8090037, 50.9344866)",France,1.8090037,50.9344866
656,Béthune,"(2.6418611281799524, 50.52987735)",France,2.6418611281799524,50.52987735
657,Molenbeek,"(4.338636, 50.8545959)",België / Belgique / Belgien,4.338636,50.8545959
658,Brussels,"(4.351697, 50.8465573)",België / Belgique / Belgien,4.351697,50.8465573
659,Mazamet,"(2.3764363, 43.4902317)",France,2.3764363,43.4902317
660,Digne,"(6.2351431, 44.0918144)",France,6.2351431,44.0918144
661,Le Tréport,"(1.3827656, 50.0591099)",France,1.3827656,50.0591099
662,Roscoff,"(-3.9828983, 48.7255816)",France,-3.9828983,48.7255816
663,Megève,"(6.617932, 45.8567089)",France,6.617932,45.8567089
664,Montreuil,"(1.7631125, 50.4638918)",France,1.7631125,50.4638918
665,Luz Ardiden,"(-0.058821, 42.8850872)",France,-0.058821,42.8850872
666,Beauraing,"(4.9567402, 50.1101971)",België / Belgique / Belgien,4.9567402,50.1101971
667,Montereau-Fault-Yonne,"(2.9557006, 48.3849647)",France,2.9557006,48.3849647
668,Régnié-Durette,"(4.6420871, 46.1384747)",France,4.6420871,46.1384747
669,Tarascon-sur-Ariège,"(1.6067586, 42.8458016)",France,1.6067586,42.8458016
670,Blois,"(1.3337639, 47.5876861)",France,1.3337639,47.5876861
671,Chantilly,"(2.47578765999255, 49.1799586)",France,2.47578765999255,49.1799586
672,Aulnay-sous-Bois,"(2.499789, 48.934231)",France,2.499789,48.934231
673,Lille,"(3.0635282, 50.6365654)",France,3.0635282,50.6365654
674,Boulogne-Billancourt,"(2.240206, 48.8356649)",France,2.240206,48.8356649
675,Lorient,"(-3.3660907, 47.7477336)",France,-3.3660907,47.7477336
676,Seurre,"(5.1487861, 46.9995787)",France,5.1487861,46.9995787
677,Quimper,"(-4.1024782, 47.9960325)",France,-4.1024782,47.9960325
678,Luz-Saint-Sauveur,"(-0.0043418, 42.8721142)",France,-0.0043418,42.8721142
679,Agde,"(3.4771629, 43.3134787)",France,3.4771629,43.3134787
680,Saint-Amand-Montrond,"(2.5046503, 46.7227062)",France,2.5046503,46.7227062
681,Saint-Jean-de-Maurienne,"(6.3453329, 45.2775258)",France,6.3453329,45.2775258
682,Angoulême,"(0.1576745, 45.6512748)",France,0.1576745,45.6512748
683,Corrèze,"(1.8176424406120555, 45.342904700000005)",France,1.8176424406120555,45.342904700000005
684,Morzine Avoriaz,"(6.7702857, 46.1925439)",France,6.7702857,46.1925439
685,La Roche sur Yon,"(-1.4269698, 46.6705431)",France,-1.4269698,46.6705431
686,Pra-Loup,"(6.6025028, 44.3701507)",France,6.6025028,44.3701507
687,Sarrebourg,"(7.0557352, 48.734239)",France,7.0557352,48.734239
688,La Chaux-de-Fonds,"(6.8325778, 47.1031321)",Schweiz/Suisse/Svizzera/Svizra,6.8325778,47.1031321
689,Montlhéry,"(2.269244, 48.6406023)",France,2.269244,48.6406023
690,Le Perreux-sur-Marne,"(2.5077111, 48.840627)",France,2.5077111,48.840627
691,Saint-Brieuc,"(-2.7603283, 48.5141134)",France,-2.7603283,48.5141134
692,Roubaix,"(3.1741734, 50.6915893)",France,3.1741734,50.6915893
693,Neuville-de-Poitou,"(0.2450626, 46.6852065)",France,0.2450626,46.6852065
694,Rambouillet,"(1.819207, 48.6452851)",France,1.819207,48.6452851
695,Sint Willebrord,"(4.5918729, 51.5507046)",Nederland,4.5918729,51.5507046
696,La Plagne,"(6.704912252907272, 45.50429855)",France,6.704912252907272,45.50429855
697,Épernay,"(3.9528655, 49.042561)",France,3.9528655,49.042561
698,Brignoles,"(6.0616452, 43.4064401)",France,6.0616452,43.4064401
699,Gourette,"(-0.32912949983056355, 42.9438107)",France,-0.32912949983056355,42.9438107
700,Pornic,"(-2.1040102, 47.1152695)",France,-2.1040102,47.1152695
701,Cork,"(-8.4654674, 51.897077)",Éire / Ireland,-8.4654674,51.897077
702,Autun,"(4.2989478, 46.9510313)",France,4.2989478,46.9510313
703,Pont-Audemer,"(0.5333167486137402, 49.34758065)",France,0.5333167486137402,49.34758065
704,La Baule,"(-2.3951595, 47.2843726)",France,-2.3951595,47.2843726
705,Tomblaine,"(6.2106707, 48.6864409)",France,6.2106707,48.6864409
706,Livarot,"(0.1519688, 49.0053166)",France,0.1519688,49.0053166
707,Sanremo,"(7.7748827, 43.8198253)",Italia,7.7748827,43.8198253
708,Cauterets,"(-0.114546, 42.8893451)",France,-0.114546,42.8893451
709,Lourdes,"(-0.0464975, 43.0940904)",France,-0.0464975,43.0940904
710,Val Thorens,"(6.5822693, 45.2979109)",France,6.5822693,45.2979109
711,Le Monêtier-les-Bains,"(6.5098787, 44.9760855)",France,6.5098787,44.9760855
712,Privas,"(4.5986733, 44.7352708)",France,4.5986733,44.7352708
713,Longjumeau,"(2.2953297, 48.6943793)",France,2.2953297,48.6943793
714,Vitoria-Gasteiz,"(-2.6724025, 42.8465088)",España,-2.6724025,42.8465088
715,Verdun,"(5.3867277, 49.1589278)",France,5.3867277,49.1589278
716,Saint-Pol-de-Léon,"(-3.9868641, 48.6849601)",France,-3.9868641,48.6849601
717,Lisieux,"(0.2255168, 49.1460831)",France,0.2255168,49.1460831
718,Dinard,"(-2.0580178, 48.6320379)",France,-2.0580178,48.6320379
719,Alfortville,"(2.4197113, 48.8051624)",France,2.4197113,48.8051624
720,Aix les Bains,"(5.9146362, 45.6886292)",France,5.9146362,45.6886292
721,Meyrignac-l'Église,"(1.8520404, 45.4008292)",France,1.8520404,45.4008292
722,Vichy,"(3.4203712, 46.1239268)",France,3.4203712,46.1239268
723,Andorra,"(1.5732033, 42.5407167)",ndorra,1.5732033,42.5407167
724,Chamonix,"(6.934005265146571, 45.92956455)",France,6.934005265146571,45.92956455
725,Saint-Germain-en-Laye,"(2.0917742569617808, 48.93560465)",France,2.0917742569617808,48.93560465
726,Saint-Étienne,"(4.3873058, 45.4401467)",France,4.3873058,45.4401467
727,Saint-Omer,"(2.2534183, 50.7515771)",France,2.2534183,50.7515771
728,Plumelec,"(-2.6396508, 47.8378469)",France,-2.6396508,47.8378469
729,Saint-Priest,"(4.54685, 44.7177)",France,4.54685,44.7177
730,Aix-les-Bains,"(5.9146362, 45.6886292)",France,5.9146362,45.6886292
731,Montceau-les-Mines,"(4.3631681, 46.6740455)",France,4.3631681,46.6740455
732,Zeeland,"(3.7028061, 51.4162975)",Nederland,3.7028061,51.4162975
733,Vittel,"(5.9418851, 48.2020717)",France,5.9418851,48.2020717
734,Granville,"(-1.5959213, 48.8376284)",France,-1.5959213,48.8376284
735,Gérardmer La Mauselaine,"(6.8882717, 48.0592543)",France,6.8882717,48.0592543
736,Visé,"(5.6936397, 50.7347797)",België / Belgique / Belgien,5.6936397,50.7347797
737,Veurey,"(5.61271, 45.2722019)",France,5.61271,45.2722019
738,Vizille,"(5.7715863, 45.0758358)",France,5.7715863,45.0758358
739,Langon,"(-0.2449274, 44.5530659)",France,-0.2449274,44.5530659
740,Romans-sur-Isère,"(5.0528681, 45.0458886)",France,5.0528681,45.0458886
741,Arpajon-sur-Cère,"(2.4570176, 44.9034428)",France,2.4570176,44.9034428
742,Castelsarrasin,"(1.1072875, 44.0395151)",France,1.1072875,44.0395151
743,Marennes,"(-1.1127949839974698, 45.8224965)",France,-1.1127949839974698,45.8224965
744,Les Sables-d'Olonne,"(-1.7924575344192666, 46.5002031)",France,-1.7924575344192666,46.5002031
745,Chassieu,"(4.9681796, 45.7422756)",France,4.9681796,45.7422756
746,Concarneau,"(-3.9223889, 47.8757017)",France,-3.9223889,47.8757017
747,Villars-les-Dombes,"(5.029519, 46.0014072)",France,5.029519,46.0014072
748,Miramas,"(5.0025809, 43.582733)",France,5.0025809,43.582733
749,Spa,"(5.8627569, 50.4920654)",België / Belgique / Belgien,5.8627569,50.4920654
750,Morlaix,"(-3.8331972, 48.5824932)",France,-3.8331972,48.5824932
751,Saint-Paul-Trois-Châteaux,"(4.7707325, 44.3475554)",France,4.7707325,44.3475554
752,Chamrousse,"(5.893161878703198, 45.1171487)",France,5.893161878703198,45.1171487
753,Dinant,"(4.9130588, 50.2591813)",België / Belgique / Belgien,4.9130588,50.2591813
754,Orange,"(-117.8704931, 33.7500378)",United States,-117.8704931,33.7500378
755,Orchies,"(3.2425313, 50.4745024)",France,3.2425313,50.4745024
